$GPGGA,210134.00,5551.2945845,N,03758.8719241,E,1,16,0.68,163.3308,M,14.1508,M,,*5B
$GPGGA,210135.00,5551.2945798,N,03758.8719314,E,1,16,0.68,163.3219,M,14.1508,M,,*55
$GPGGA,210136.00,5551.2945747,N,03758.8719365,E,1,16,0.68,163.3112,M,14.1508,M,,*5A
$GPGGA,210137.00,5551.2945760,N,03758.8719337,E,1,16,0.68,163.3119,M,14.1508,M,,*52
$GPGGA,210138.00,5551.2945823,N,03758.8719247,E,1,16,0.68,163.3240,M,14.1508,M,,*5C
$GPGGA,210139.00,5551.2945835,N,03758.8719261,E,1,16,0.68,163.3342,M,14.1508,M,,*5D
$GPGGA,210140.00,5551.2945866,N,03758.8719281,E,1,16,0.68,163.3437,M,14.1508,M,,*5E
$GPGGA,210141.00,5551.2945836,N,03758.8719277,E,1,16,0.68,163.3386,M,14.1508,M,,*5E
$GPGGA,210142.00,5551.2945788,N,03758.8719297,E,1,16,0.68,163.3232,M,14.1508,M,,*57
$GPGGA,210143.00,5551.2945816,N,03758.8719215,E,1,16,0.68,163.3272,M,14.1508,M,,*50
$GPGGA,210144.00,5551.2945849,N,03758.8719152,E,1,16,0.68,163.3301,M,14.1508,M,,*58
$GPGGA,210145.00,5551.2945880,N,03758.8719129,E,1,16,0.68,163.3362,M,14.1508,M,,*55
$GPGGA,210146.00,5551.2945910,N,03758.8719103,E,1,16,0.68,163.3391,M,14.1508,M,,*5A
$GPGGA,210147.00,5551.2945920,N,03758.8719056,E,1,16,0.68,163.3333,M,14.1508,M,,*51
$GPGGA,210148.00,5551.2945877,N,03758.8719096,E,1,16,0.68,163.3108,M,14.1508,M,,*5B
$GPGGA,210149.00,5551.2945870,N,03758.8719087,E,1,16,0.68,163.3085,M,14.1508,M,,*59
$GPGGA,210150.00,5551.2945909,N,03758.8719040,E,1,16,0.68,163.3132,M,14.1508,M,,*58
$GPGGA,210151.00,5551.2945901,N,03758.8719034,E,1,16,0.68,163.3069,M,14.1508,M,,*5D
$GPGGA,210152.00,5551.2945920,N,03758.8719043,E,1,16,0.68,163.3094,M,14.1508,M,,*5F
$GPGGA,210153.00,5551.2945919,N,03758.8719091,E,1,16,0.68,163.3050,M,14.1508,M,,*53
$GPGGA,210154.00,5551.2945946,N,03758.8719103,E,1,16,0.68,163.3086,M,14.1508,M,,*5F
$GPGGA,210155.00,5551.2945952,N,03758.8719187,E,1,16,0.68,163.3107,M,14.1508,M,,*5F
$GPGGA,210156.00,5551.2945933,N,03758.8719263,E,1,16,0.68,163.3029,M,14.1508,M,,*5F
$GPGGA,210157.00,5551.2945913,N,03758.8719290,E,1,16,0.68,163.2930,M,14.1508,M,,*50
$GPGGA,210158.00,5551.2945923,N,03758.8719242,E,1,16,0.68,163.2995,M,14.1508,M,,*5C
$GPGGA,210159.00,5551.2945971,N,03758.8719139,E,1,16,0.68,163.3116,M,14.1508,M,,*57
$GPGGA,210200.00,5551.2945943,N,03758.8719118,E,1,16,0.68,163.3117,M,14.1508,M,,*5B
$GPGGA,210201.00,5551.2945923,N,03758.8719130,E,1,16,0.68,163.3066,M,14.1508,M,,*51
$GPGGA,210202.00,5551.2945928,N,03758.8719162,E,1,16,0.68,163.3102,M,14.1508,M,,*5D
$GPGGA,210203.00,5551.2945963,N,03758.8719123,E,1,16,0.68,163.3212,M,14.1508,M,,*54
$GPGGA,210204.00,5551.2945977,N,03758.8719116,E,1,16,0.68,163.3265,M,14.1508,M,,*50
$GPGGA,210205.00,5551.2946014,N,03758.8719087,E,1,16,0.68,163.3386,M,14.1508,M,,*5B
$GPGGA,210206.00,5551.2946021,N,03758.8719000,E,1,16,0.68,163.3349,M,14.1508,M,,*52
$GPGGA,210207.00,5551.2946057,N,03758.8718926,E,1,16,0.68,163.3404,M,14.1508,M,,*50
$GPGGA,210208.00,5551.2946091,N,03758.8718815,E,1,16,0.68,163.3476,M,14.1508,M,,*51
$GPGGA,210209.00,5551.2946099,N,03758.8718768,E,1,16,0.68,163.3467,M,14.1508,M,,*5D
$GPGGA,210210.00,5551.2946116,N,03758.8718727,E,1,16,0.68,163.3461,M,14.1508,M,,*5E
$GPGGA,210211.00,5551.2946145,N,03758.8718643,E,1,16,0.68,163.3500,M,14.1508,M,,*5C
$GPGGA,210212.00,5551.2946170,N,03758.8718576,E,1,16,0.68,163.3482,M,14.1508,M,,*57
$GPGGA,210213.00,5551.2946152,N,03758.8718564,E,1,16,0.68,163.3424,M,14.1508,M,,*59
$GPGGA,210214.00,5551.2946107,N,03758.8718630,E,1,16,0.68,163.3333,M,14.1508,M,,*5D
$GPGGA,210215.00,5551.2946119,N,03758.8718593,E,1,16,0.68,163.3361,M,14.1508,M,,*5E
$GPGGA,210216.00,5551.2946083,N,03758.8718595,E,1,16,0.68,163.3318,M,14.1508,M,,*57
$GPGGA,210217.00,5551.2946066,N,03758.8718605,E,1,16,0.68,163.3327,M,14.1508,M,,*5B
$GPGGA,210218.00,5551.2946057,N,03758.8718635,E,1,16,0.68,163.3324,M,14.1508,M,,*56
$GPGGA,210219.00,5551.2946079,N,03758.8718632,E,1,16,0.68,163.3369,M,14.1508,M,,*55
$GPGGA,210220.00,5551.2946066,N,03758.8718608,E,1,16,0.68,163.3348,M,14.1508,M,,*5B
$GPGGA,210221.00,5551.2946075,N,03758.8718608,E,1,16,0.68,163.3358,M,14.1508,M,,*59
$GPGGA,210222.00,5551.2946084,N,03758.8718644,E,1,16,0.68,163.3356,M,14.1508,M,,*52
$GPGGA,210223.00,5551.2946062,N,03758.8718677,E,1,16,0.68,163.3350,M,14.1508,M,,*5D
$GPGGA,210224.00,5551.2946083,N,03758.8718680,E,1,16,0.68,163.3389,M,14.1508,M,,*59
$GPGGA,210225.00,5551.2946074,N,03758.8718806,E,1,16,0.68,163.3407,M,14.1508,M,,*51
$GPGGA,210226.00,5551.2946049,N,03758.8718782,E,1,16,0.68,163.3336,M,14.1508,M,,*5A
$GPGGA,210227.00,5551.2946043,N,03758.8718737,E,1,16,0.68,163.3258,M,14.1508,M,,*56
$GPGGA,210228.00,5551.2946059,N,03758.8718685,E,1,16,0.68,163.3220,M,14.1508,M,,*55
$GPGGA,210229.00,5551.2946049,N,03758.8718662,E,1,16,0.68,163.3178,M,14.1508,M,,*52
$GPGGA,210230.00,5551.2946045,N,03758.8718691,E,1,16,0.68,163.3180,M,14.1508,M,,*5D
$GPGGA,210231.00,5551.2946065,N,03758.8718679,E,1,16,0.68,163.3216,M,14.1508,M,,*54
$GPGGA,210232.00,5551.2946052,N,03758.8718674,E,1,16,0.68,163.3200,M,14.1508,M,,*59
$GPGGA,210233.00,5551.2946013,N,03758.8718695,E,1,16,0.68,163.3143,M,14.1508,M,,*56
$GPGGA,210234.00,5551.2945993,N,03758.8718744,E,1,16,0.68,163.3126,M,14.1508,M,,*5D
$GPGGA,210235.00,5551.2946028,N,03758.8718733,E,1,16,0.68,163.3220,M,14.1508,M,,*53
$GPGGA,210236.00,5551.2946012,N,03758.8718747,E,1,16,0.68,163.3202,M,14.1508,M,,*5A
$GPGGA,210237.00,5551.2946001,N,03758.8718753,E,1,16,0.68,163.3141,M,14.1508,M,,*58
$GPGGA,210238.00,5551.2945995,N,03758.8718766,E,1,16,0.68,163.3128,M,14.1508,M,,*59
$GPGGA,210239.00,5551.2946005,N,03758.8718739,E,1,16,0.68,163.3099,M,14.1508,M,,*5A
$GPGGA,210240.00,5551.2946022,N,03758.8718715,E,1,16,0.68,163.3068,M,14.1508,M,,*51
$GPGGA,210241.00,5551.2946064,N,03758.8718619,E,1,16,0.68,163.3073,M,14.1508,M,,*55
$GPGGA,210242.00,5551.2946069,N,03758.8718522,E,1,16,0.68,163.3029,M,14.1508,M,,*5F
$GPGGA,210243.00,5551.2946093,N,03758.8718471,E,1,16,0.68,163.3020,M,14.1508,M,,*55
$GPGGA,210244.00,5551.2946102,N,03758.8718435,E,1,16,0.68,163.3058,M,14.1508,M,,*54
$GPGGA,210245.00,5551.2946105,N,03758.8718402,E,1,16,0.68,163.3064,M,14.1508,M,,*59
$GPGGA,210246.00,5551.2946108,N,03758.8718358,E,1,16,0.68,163.3052,M,14.1508,M,,*5A
$GPGGA,210247.00,5551.2946150,N,03758.8718243,E,1,16,0.68,163.3042,M,14.1508,M,,*5C
$GPGGA,210248.00,5551.2946179,N,03758.8718160,E,1,16,0.68,163.3032,M,14.1508,M,,*5D
$GPGGA,210249.00,5551.2946181,N,03758.8718170,E,1,16,0.68,163.3087,M,14.1508,M,,*54
$GPGGA,210250.00,5551.2946175,N,03758.8718215,E,1,16,0.68,163.3144,M,14.1508,M,,*59
$GPGGA,210251.00,5551.2946138,N,03758.8718357,E,1,16,0.68,163.3228,M,14.1508,M,,*5F
$GPGGA,210252.00,5551.2946106,N,03758.8718398,E,1,16,0.68,163.3231,M,14.1508,M,,*5A
$GPGGA,210253.00,5551.2946074,N,03758.8718429,E,1,16,0.68,163.3210,M,14.1508,M,,*51
$GPGGA,210254.00,5551.2946067,N,03758.8718441,E,1,16,0.68,163.3233,M,14.1508,M,,*5B
$GPGGA,210255.00,5551.2946071,N,03758.8718454,E,1,16,0.68,163.3241,M,14.1508,M,,*5C
$GPGGA,210256.00,5551.2946055,N,03758.8718483,E,1,16,0.68,163.3230,M,14.1508,M,,*55
$GPGGA,210257.00,5551.2946056,N,03758.8718479,E,1,16,0.68,163.3214,M,14.1508,M,,*54
$GPGGA,210258.00,5551.2946063,N,03758.8718461,E,1,16,0.68,163.3219,M,14.1508,M,,*59
$GPGGA,210259.00,5551.2946062,N,03758.8718450,E,1,16,0.68,163.3236,M,14.1508,M,,*56
$GPGGA,210300.00,5551.2946036,N,03758.8718470,E,1,16,0.68,163.3223,M,14.1508,M,,*5C
$GPGGA,210301.00,5551.2946017,N,03758.8718493,E,1,16,0.68,163.3207,M,14.1508,M,,*55
$GPGGA,210302.00,5551.2946007,N,03758.8718497,E,1,16,0.68,163.3190,M,14.1508,M,,*5E
$GPGGA,210303.00,5551.2946004,N,03758.8718472,E,1,16,0.68,163.3164,M,14.1508,M,,*5C
$GPGGA,210304.00,5551.2946020,N,03758.8718448,E,1,16,0.68,163.3191,M,14.1508,M,,*5E
$GPGGA,210305.00,5551.2946027,N,03758.8718426,E,1,16,0.68,163.3196,M,14.1508,M,,*57
$GPGGA,210306.00,5551.2946036,N,03758.8718412,E,1,16,0.68,163.3167,M,14.1508,M,,*5D
$GPGGA,210307.00,5551.2946037,N,03758.8718392,E,1,16,0.68,163.3137,M,14.1508,M,,*57
$GPGGA,210308.00,5551.2946047,N,03758.8718377,E,1,16,0.68,163.3123,M,14.1508,M,,*51
$GPGGA,210309.00,5551.2946018,N,03758.8718393,E,1,16,0.68,163.3045,M,14.1508,M,,*51
$GPGGA,210310.00,5551.2946036,N,03758.8718380,E,1,16,0.68,163.3037,M,14.1508,M,,*52
$GPGGA,210311.00,5551.2946019,N,03758.8718369,E,1,16,0.68,163.3013,M,14.1508,M,,*5F
$GPGGA,210312.00,5551.2945999,N,03758.8718348,E,1,16,0.68,163.2940,M,14.1508,M,,*53
$GPGGA,210313.00,5551.2946003,N,03758.8718313,E,1,16,0.68,163.2955,M,14.1508,M,,*51
$GPGGA,210314.00,5551.2946020,N,03758.8718273,E,1,16,0.68,163.2932,M,14.1508,M,,*51
$GPGGA,210315.00,5551.2946042,N,03758.8718313,E,1,16,0.68,163.2979,M,14.1508,M,,*5C
$GPGGA,210316.00,5551.2946041,N,03758.8718284,E,1,16,0.68,163.3017,M,14.1508,M,,*53
$GPGGA,210317.00,5551.2946034,N,03758.8718280,E,1,16,0.68,163.2988,M,14.1508,M,,*5A
$GPGGA,210318.00,5551.2946030,N,03758.8718253,E,1,16,0.68,163.2957,M,14.1508,M,,*5D
$GPGGA,210319.00,5551.2945995,N,03758.8718296,E,1,16,0.68,163.2900,M,14.1508,M,,*52
$GPGGA,210320.00,5551.2945977,N,03758.8718293,E,1,16,0.68,163.2857,M,14.1508,M,,*52
$GPGGA,210321.00,5551.2946008,N,03758.8718221,E,1,16,0.68,163.2852,M,14.1508,M,,*5D
$GPGGA,210322.00,5551.2945986,N,03758.8718239,E,1,16,0.68,163.2804,M,14.1508,M,,*58
$GPGGA,210323.00,5551.2945960,N,03758.8718269,E,1,16,0.68,163.2818,M,14.1508,M,,*59
$GPGGA,210324.00,5551.2945938,N,03758.8718281,E,1,16,0.68,163.2833,M,14.1508,M,,*5C
$GPGGA,210325.00,5551.2945963,N,03758.8718288,E,1,16,0.68,163.2975,M,14.1508,M,,*59
$GPGGA,210326.00,5551.2945955,N,03758.8718357,E,1,16,0.68,163.3032,M,14.1508,M,,*57
$GPGGA,210327.00,5551.2945965,N,03758.8718385,E,1,16,0.68,163.3151,M,14.1508,M,,*5E
$GPGGA,210328.00,5551.2945959,N,03758.8718378,E,1,16,0.68,163.3201,M,14.1508,M,,*5A
$GPGGA,210329.00,5551.2945959,N,03758.8718394,E,1,16,0.68,163.3241,M,14.1508,M,,*5D
$GPGGA,210330.00,5551.2945985,N,03758.8718391,E,1,16,0.68,163.3299,M,14.1508,M,,*54
$GPGGA,210331.00,5551.2945993,N,03758.8718361,E,1,16,0.68,163.3328,M,14.1508,M,,*56
$GPGGA,210332.00,5551.2946018,N,03758.8718366,E,1,16,0.68,163.3406,M,14.1508,M,,*50
$GPGGA,210333.00,5551.2945740,N,03758.8719816,E,1,17,0.65,163.1567,M,14.1508,M,,*5D
$GPGGA,210334.00,5551.2945723,N,03758.8719775,E,1,17,0.65,163.1513,M,14.1508,M,,*56
$GPGGA,210335.00,5551.2945759,N,03758.8719757,E,1,17,0.65,163.1649,M,14.1508,M,,*56
$GPGGA,210336.00,5551.2945768,N,03758.8719742,E,1,17,0.65,163.1771,M,14.1508,M,,*59
$GPGGA,210337.00,5551.2945732,N,03758.8719690,E,1,17,0.65,163.1696,M,14.1508,M,,*51
$GPGGA,210338.00,5551.2945717,N,03758.8719651,E,1,17,0.65,163.1675,M,14.1508,M,,*59
$GPGGA,210339.00,5551.2945690,N,03758.8719634,E,1,17,0.65,163.1562,M,14.1508,M,,*50
$GPGGA,210340.00,5551.2945688,N,03758.8719589,E,1,17,0.65,163.1565,M,14.1508,M,,*55
$GPGGA,210341.00,5551.2945677,N,03758.8719585,E,1,17,0.65,163.1521,M,14.1508,M,,*58
$GPGGA,210342.00,5551.2945627,N,03758.8719708,E,1,17,0.65,163.1293,M,14.1508,M,,*57
$GPGGA,210343.00,5551.2945563,N,03758.8719873,E,1,17,0.65,163.1120,M,14.1508,M,,*5D
$GPGGA,210344.00,5551.2945748,N,03758.8718843,E,1,17,0.65,163.2451,M,14.1508,M,,*53
$GPGGA,210345.00,5551.2945753,N,03758.8718842,E,1,17,0.65,163.2476,M,14.1508,M,,*5C
$GPGGA,210346.00,5551.2945752,N,03758.8718749,E,1,17,0.65,163.2403,M,14.1508,M,,*58
$GPGGA,210347.00,5551.2945736,N,03758.8718655,E,1,17,0.65,163.2289,M,14.1508,M,,*53
$GPGGA,210348.00,5551.2945741,N,03758.8718682,E,1,17,0.65,163.2319,M,14.1508,M,,*5E
$GPGGA,210349.00,5551.2945467,N,03758.8719877,E,1,17,0.65,163.0721,M,14.1508,M,,*50
$GPGGA,210350.00,5551.2945463,N,03758.8719907,E,1,17,0.65,163.0746,M,14.1508,M,,*5B
$GPGGA,210351.00,5551.2945454,N,03758.8719894,E,1,17,0.65,163.0734,M,14.1508,M,,*50
$GPGGA,210352.00,5551.2945423,N,03758.8719846,E,1,17,0.65,163.0615,M,14.1508,M,,*5E
$GPGGA,210353.00,5551.2945396,N,03758.8719917,E,1,17,0.65,163.0584,M,14.1508,M,,*58
$GPGGA,210354.00,5551.2945376,N,03758.8720030,E,1,17,0.65,163.0695,M,14.1508,M,,*54
$GPGGA,210355.00,5551.2945300,N,03758.8720199,E,1,17,0.65,163.0531,M,14.1508,M,,*5B
$GPGGA,210356.00,5551.2945246,N,03758.8720319,E,1,17,0.65,163.0398,M,14.1508,M,,*54
$GPGGA,210357.00,5551.2945186,N,03758.8720396,E,1,17,0.65,163.0246,M,14.1508,M,,*5F
$GPGGA,210358.00,5551.2945217,N,03758.8720347,E,1,17,0.65,163.0237,M,14.1508,M,,*51
$GPGGA,210359.00,5551.2945228,N,03758.8720335,E,1,17,0.65,163.0151,M,14.1508,M,,*5A
$GPGGA,210400.00,5551.2945246,N,03758.8720362,E,1,17,0.65,163.0170,M,14.1508,M,,*58
$GPGGA,210401.00,5551.2945257,N,03758.8720336,E,1,17,0.65,163.0174,M,14.1508,M,,*5C
$GPGGA,210402.00,5551.2945184,N,03758.8720411,E,1,17,0.65,163.0048,M,14.1508,M,,*5E
$GPGGA,210403.00,5551.2945175,N,03758.8720414,E,1,17,0.65,163.0051,M,14.1508,M,,*5C
$GPGGA,210404.00,5551.2945149,N,03758.8720455,E,1,17,0.65,163.0006,M,14.1508,M,,*53
$GPGGA,210405.00,5551.2945142,N,03758.8720446,E,1,17,0.65,162.9944,M,14.1508,M,,*5C
$GPGGA,210406.00,5551.2945229,N,03758.8720466,E,1,17,0.65,163.0182,M,14.1508,M,,*59
$GPGGA,210407.00,5551.2945315,N,03758.8720459,E,1,17,0.65,163.0394,M,14.1508,M,,*5F
$GPGGA,210408.00,5551.2945358,N,03758.8720376,E,1,17,0.65,163.0478,M,14.1508,M,,*56
$GPGGA,210409.00,5551.2945384,N,03758.8720283,E,1,17,0.65,163.0444,M,14.1508,M,,*52
$GPGGA,210410.00,5551.2945433,N,03758.8720168,E,1,17,0.65,163.0346,M,14.1508,M,,*52
$GPGGA,210411.00,5551.2945449,N,03758.8720097,E,1,17,0.65,163.0222,M,14.1508,M,,*5C
$GPGGA,210412.00,5551.2945437,N,03758.8720029,E,1,17,0.65,163.0112,M,14.1508,M,,*53
$GPGGA,210413.00,5551.2945442,N,03758.8720010,E,1,17,0.65,163.0115,M,14.1508,M,,*5D
$GPGGA,210414.00,5551.2945425,N,03758.8719951,E,1,17,0.65,163.0066,M,14.1508,M,,*58
$GPGGA,210415.00,5551.2945384,N,03758.8719962,E,1,17,0.65,162.9999,M,14.1508,M,,*54
$GPGGA,210416.00,5551.2945373,N,03758.8719979,E,1,17,0.65,163.0051,M,14.1508,M,,*50
$GPGGA,210417.00,5551.2945349,N,03758.8720014,E,1,17,0.65,163.0142,M,14.1508,M,,*53
$GPGGA,210418.00,5551.2945374,N,03758.8720003,E,1,17,0.65,163.0349,M,14.1508,M,,*5D
$GPGGA,210419.00,5551.2945410,N,03758.8719972,E,1,17,0.65,163.0452,M,14.1508,M,,*51
$GPGGA,210420.00,5551.2945403,N,03758.8720018,E,1,17,0.65,163.0440,M,14.1508,M,,*55
$GPGGA,210421.00,5551.2945404,N,03758.8720029,E,1,17,0.65,163.0443,M,14.1508,M,,*52
$GPGGA,210422.00,5551.2945439,N,03758.8719967,E,1,17,0.65,163.0519,M,14.1508,M,,*58
$GPGGA,210423.00,5551.2945520,N,03758.8719880,E,1,17,0.65,163.0664,M,14.1508,M,,*51
$GPGGA,210424.00,5551.2945537,N,03758.8719849,E,1,17,0.65,163.0726,M,14.1508,M,,*52
$GPGGA,210425.00,5551.2945506,N,03758.8719829,E,1,17,0.65,163.0703,M,14.1508,M,,*50
$GPGGA,210426.00,5551.2945462,N,03758.8719862,E,1,17,0.65,163.0624,M,14.1508,M,,*5B
$GPGGA,210427.00,5551.2945448,N,03758.8719861,E,1,17,0.65,163.0645,M,14.1508,M,,*56
$GPGGA,210428.00,5551.2945494,N,03758.8719802,E,1,17,0.65,163.0804,M,14.1508,M,,*56
$GPGGA,210429.00,5551.2945552,N,03758.8719720,E,1,17,0.65,163.0891,M,14.1508,M,,*5F
$GPGGA,210430.00,5551.2945578,N,03758.8719732,E,1,17,0.65,163.0919,M,14.1508,M,,*5D
$GPGGA,210431.00,5551.2945535,N,03758.8719767,E,1,17,0.65,163.0844,M,14.1508,M,,*5C
$GPGGA,210432.00,5551.2945493,N,03758.8719770,E,1,17,0.65,163.0740,M,14.1508,M,,*5F
$GPGGA,210433.00,5551.2945460,N,03758.8719720,E,1,17,0.65,163.0632,M,14.1508,M,,*53
$GPGGA,210434.00,5551.2945431,N,03758.8719727,E,1,17,0.65,163.0494,M,14.1508,M,,*59
$GPGGA,210435.00,5551.2945375,N,03758.8719768,E,1,17,0.65,163.0418,M,14.1508,M,,*50
$GPGGA,210436.00,5551.2945357,N,03758.8719790,E,1,17,0.65,163.0380,M,14.1508,M,,*52
$GPGGA,210437.00,5551.2945416,N,03758.8719789,E,1,17,0.65,163.0515,M,14.1508,M,,*53
$GPGGA,210438.00,5551.2945515,N,03758.8719821,E,1,17,0.65,163.0807,M,14.1508,M,,*5D
$GPGGA,210439.00,5551.2945552,N,03758.8719789,E,1,17,0.65,163.0951,M,14.1508,M,,*50
$GPGGA,210440.00,5551.2945595,N,03758.8719815,E,1,17,0.65,163.1117,M,14.1508,M,,*54
$GPGGA,210441.00,5551.2945602,N,03758.8719862,E,1,17,0.65,163.1187,M,14.1508,M,,*51
$GPGGA,210442.00,5551.2945621,N,03758.8719793,E,1,17,0.65,163.1206,M,14.1508,M,,*58
$GPGGA,210443.00,5551.2945639,N,03758.8719756,E,1,17,0.65,163.1250,M,14.1508,M,,*5A
$GPGGA,210444.00,5551.2945651,N,03758.8719709,E,1,17,0.65,163.1229,M,14.1508,M,,*57
$GPGGA,210445.00,5551.2945657,N,03758.8719662,E,1,17,0.65,163.1205,M,14.1508,M,,*52
$GPGGA,210446.00,5551.2945698,N,03758.8719598,E,1,17,0.65,163.1227,M,14.1508,M,,*54
$GPGGA,210447.00,5551.2945733,N,03758.8719548,E,1,17,0.65,163.1206,M,14.1508,M,,*5B
$GPGGA,210448.00,5551.2945720,N,03758.8719551,E,1,17,0.65,163.1209,M,14.1508,M,,*51
$GPGGA,210449.00,5551.2945726,N,03758.8719557,E,1,17,0.65,163.1267,M,14.1508,M,,*58
$GPGGA,210450.00,5551.2945723,N,03758.8719564,E,1,17,0.65,163.1315,M,14.1508,M,,*51
$GPGGA,210451.00,5551.2945726,N,03758.8719551,E,1,17,0.65,163.1422,M,14.1508,M,,*50
$GPGGA,210452.00,5551.2945734,N,03758.8719551,E,1,17,0.65,163.1410,M,14.1508,M,,*51
$GPGGA,210453.00,5551.2945720,N,03758.8719543,E,1,17,0.65,163.1412,M,14.1508,M,,*54
$GPGGA,210454.00,5551.2945749,N,03758.8719501,E,1,17,0.65,163.1449,M,14.1508,M,,*54
$GPGGA,210455.00,5551.2945767,N,03758.8719477,E,1,17,0.65,163.1473,M,14.1508,M,,*50
$GPGGA,210456.00,5551.2945787,N,03758.8719478,E,1,17,0.65,163.1515,M,14.1508,M,,*53
$GPGGA,210457.00,5551.2945787,N,03758.8719490,E,1,17,0.65,163.1541,M,14.1508,M,,*55
$GPGGA,210458.00,5551.2945787,N,03758.8719527,E,1,17,0.65,163.1571,M,14.1508,M,,*54
$GPGGA,210459.00,5551.2945810,N,03758.8719564,E,1,17,0.65,163.1620,M,14.1508,M,,*54
$GPGGA,210500.00,5551.2945847,N,03758.8719619,E,1,17,0.65,163.1640,M,14.1508,M,,*54
$GPGGA,210501.00,5551.2945864,N,03758.8719652,E,1,17,0.65,163.1675,M,14.1508,M,,*5D
$GPGGA,210502.00,5551.2945826,N,03758.8719586,E,1,17,0.65,163.1590,M,14.1508,M,,*5A
$GPGGA,210503.00,5551.2945780,N,03758.8719518,E,1,17,0.65,163.1469,M,14.1508,M,,*58
$GPGGA,210504.00,5551.2945773,N,03758.8719476,E,1,17,0.65,163.1364,M,14.1508,M,,*50
$GPGGA,210505.00,5551.2945767,N,03758.8719518,E,1,17,0.65,163.1367,M,14.1508,M,,*5E
$GPGGA,210506.00,5551.2945751,N,03758.8719555,E,1,17,0.65,163.1391,M,14.1508,M,,*58
$GPGGA,210507.00,5551.2945772,N,03758.8719576,E,1,17,0.65,163.1445,M,14.1508,M,,*57
$GPGGA,210508.00,5551.2945757,N,03758.8719627,E,1,17,0.65,163.1497,M,14.1508,M,,*57
$GPGGA,210509.00,5551.2945755,N,03758.8719627,E,1,17,0.65,163.1504,M,14.1508,M,,*5F
$GPGGA,210510.00,5551.2945771,N,03758.8719598,E,1,17,0.65,163.1507,M,14.1508,M,,*55
$GPGGA,210511.00,5551.2945788,N,03758.8719578,E,1,17,0.65,163.1494,M,14.1508,M,,*57
$GPGGA,210512.00,5551.2945833,N,03758.8719511,E,1,17,0.65,163.1539,M,14.1508,M,,*52
$GPGGA,210513.00,5551.2945832,N,03758.8719570,E,1,17,0.65,163.1441,M,14.1508,M,,*5B
$GPGGA,210514.00,5551.2945856,N,03758.8719562,E,1,17,0.65,163.1413,M,14.1508,M,,*5A
$GPGGA,210515.00,5551.2945840,N,03758.8719608,E,1,17,0.65,163.1318,M,14.1508,M,,*5F
$GPGGA,210516.00,5551.2945797,N,03758.8719699,E,1,17,0.65,163.1250,M,14.1508,M,,*5C
$GPGGA,210517.00,5551.2945756,N,03758.8719795,E,1,17,0.65,163.1105,M,14.1508,M,,*5E
$GPGGA,210518.00,5551.2945741,N,03758.8719867,E,1,17,0.65,163.1095,M,14.1508,M,,*5D
$GPGGA,210519.00,5551.2945750,N,03758.8719880,E,1,17,0.65,163.1083,M,14.1508,M,,*52
$GPGGA,210520.00,5551.2945727,N,03758.8719878,E,1,17,0.65,163.1035,M,14.1508,M,,*52
$GPGGA,210521.00,5551.2945725,N,03758.8719898,E,1,17,0.65,163.1007,M,14.1508,M,,*5E
$GPGGA,210522.00,5551.2945702,N,03758.8719910,E,1,17,0.65,163.0953,M,14.1508,M,,*50
$GPGGA,210523.00,5551.2945694,N,03758.8719868,E,1,17,0.65,163.0903,M,14.1508,M,,*54
$GPGGA,210524.00,5551.2945711,N,03758.8719850,E,1,17,0.65,163.1001,M,14.1508,M,,*5E
$GPGGA,210525.00,5551.2945760,N,03758.8719795,E,1,17,0.65,163.1149,M,14.1508,M,,*52
$GPGGA,210526.00,5551.2945798,N,03758.8719741,E,1,17,0.65,163.1197,M,14.1508,M,,*5C
$GPGGA,210527.00,5551.2945800,N,03758.8719706,E,1,17,0.65,163.1233,M,14.1508,M,,*5D
$GPGGA,210528.00,5551.2945796,N,03758.8719666,E,1,17,0.65,163.1240,M,14.1508,M,,*51
$GPGGA,210529.00,5551.2945791,N,03758.8719616,E,1,17,0.65,163.1277,M,14.1508,M,,*54
$GPGGA,210530.00,5551.2945808,N,03758.8719582,E,1,17,0.65,163.1367,M,14.1508,M,,*5D
$GPGGA,210531.00,5551.2945801,N,03758.8719545,E,1,17,0.65,163.1434,M,14.1508,M,,*5F
$GPGGA,210532.00,5551.2945792,N,03758.8719597,E,1,17,0.65,163.1439,M,14.1508,M,,*5B
$GPGGA,210533.00,5551.2945861,N,03758.8719569,E,1,17,0.65,163.1558,M,14.1508,M,,*5E
$GPGGA,210534.00,5551.2945898,N,03758.8719582,E,1,17,0.65,163.1572,M,14.1508,M,,*52
$GPGGA,210535.00,5551.2945896,N,03758.8719569,E,1,17,0.65,163.1600,M,14.1508,M,,*5E
$GPGGA,210536.00,5551.2945889,N,03758.8719560,E,1,17,0.65,163.1593,M,14.1508,M,,*53
$GPGGA,210537.00,5551.2945893,N,03758.8719526,E,1,17,0.65,163.1579,M,14.1508,M,,*5F
$GPGGA,210538.00,5551.2945903,N,03758.8719478,E,1,17,0.65,163.1532,M,14.1508,M,,*5D
$GPGGA,210539.00,5551.2945926,N,03758.8719416,E,1,17,0.65,163.1487,M,14.1508,M,,*5C
$GPGGA,210540.00,5551.2945930,N,03758.8719420,E,1,17,0.65,163.1485,M,14.1508,M,,*52
$GPGGA,210541.00,5551.2945932,N,03758.8719424,E,1,17,0.65,163.1468,M,14.1508,M,,*56
$GPGGA,210542.00,5551.2945949,N,03758.8719364,E,1,17,0.65,163.1433,M,14.1508,M,,*54
$GPGGA,210543.00,5551.2945971,N,03758.8719399,E,1,17,0.65,163.1444,M,14.1508,M,,*5C
$GPGGA,210544.00,5551.2945967,N,03758.8719425,E,1,17,0.65,163.1485,M,14.1508,M,,*51
$GPGGA,210545.00,5551.2945963,N,03758.8719457,E,1,17,0.65,163.1528,M,14.1508,M,,*57
$GPGGA,210546.00,5551.2945968,N,03758.8719461,E,1,17,0.65,163.1562,M,14.1508,M,,*54
$GPGGA,210547.00,5551.2945983,N,03758.8719434,E,1,17,0.65,163.1569,M,14.1508,M,,*5B
$GPGGA,210548.00,5551.2945998,N,03758.8719417,E,1,17,0.65,163.1576,M,14.1508,M,,*51
$GPGGA,210549.00,5551.2946022,N,03758.8719386,E,1,17,0.65,163.1522,M,14.1508,M,,*55
$GPGGA,210550.00,5551.2946069,N,03758.8719306,E,1,17,0.65,163.1502,M,14.1508,M,,*58
$GPGGA,210551.00,5551.2946104,N,03758.8719246,E,1,17,0.65,163.1484,M,14.1508,M,,*59
$GPGGA,210552.00,5551.2946118,N,03758.8719176,E,1,17,0.65,163.1452,M,14.1508,M,,*5C
$GPGGA,210553.00,5551.2946150,N,03758.8719103,E,1,17,0.65,163.1443,M,14.1508,M,,*53
$GPGGA,210554.00,5551.2946203,N,03758.8719015,E,1,17,0.65,163.1458,M,14.1508,M,,*5D
$GPGGA,210555.00,5551.2946260,N,03758.8718904,E,1,17,0.65,163.1443,M,14.1508,M,,*5B
$GPGGA,210556.00,5551.2946299,N,03758.8718830,E,1,17,0.65,163.1420,M,14.1508,M,,*5D
$GPGGA,210557.00,5551.2946306,N,03758.8718849,E,1,17,0.65,163.1444,M,14.1508,M,,*57
$GPGGA,210558.00,5551.2946342,N,03758.8718829,E,1,17,0.65,163.1439,M,14.1508,M,,*54
$GPGGA,210559.00,5551.2946367,N,03758.8718807,E,1,17,0.65,163.1424,M,14.1508,M,,*52
$GPGGA,210600.00,5551.2946329,N,03758.8718837,E,1,17,0.65,163.1393,M,14.1508,M,,*5F
$GPGGA,210601.00,5551.2946308,N,03758.8718830,E,1,17,0.65,163.1317,M,14.1508,M,,*56
$GPGGA,210602.00,5551.2946267,N,03758.8718897,E,1,17,0.65,163.1345,M,14.1508,M,,*57
$GPGGA,210603.00,5551.2946224,N,03758.8718998,E,1,17,0.65,163.1415,M,14.1508,M,,*5D
$GPGGA,210604.00,5551.2946205,N,03758.8719065,E,1,17,0.65,163.1400,M,14.1508,M,,*57
$GPGGA,210605.00,5551.2946208,N,03758.8719147,E,1,17,0.65,163.1504,M,14.1508,M,,*5F
$GPGGA,210606.00,5551.2946144,N,03758.8719248,E,1,17,0.65,163.1573,M,14.1508,M,,*5B
$GPGGA,210607.00,5551.2946085,N,03758.8719220,E,1,17,0.65,163.1543,M,14.1508,M,,*5B
$GPGGA,210608.00,5551.2946101,N,03758.8719199,E,1,17,0.65,163.1664,M,14.1508,M,,*5E
$GPGGA,210609.00,5551.2946108,N,03758.8719213,E,1,17,0.65,163.1708,M,14.1508,M,,*5C
$GPGGA,210610.00,5551.2946090,N,03758.8719211,E,1,17,0.65,163.1698,M,14.1508,M,,*5E
$GPGGA,210611.00,5551.2946114,N,03758.8719199,E,1,17,0.65,163.1774,M,14.1508,M,,*52
$GPGGA,210612.00,5551.2946129,N,03758.8719194,E,1,17,0.65,163.1826,M,14.1508,M,,*5A
$GPGGA,210613.00,5551.2946155,N,03758.8719227,E,1,17,0.65,163.1816,M,14.1508,M,,*58
$GPGGA,210614.00,5551.2946159,N,03758.8719254,E,1,17,0.65,163.1774,M,14.1508,M,,*5C
$GPGGA,210615.00,5551.2946156,N,03758.8719271,E,1,17,0.65,163.1760,M,14.1508,M,,*50
$GPGGA,210616.00,5551.2946160,N,03758.8719292,E,1,17,0.65,163.1781,M,14.1508,M,,*54
$GPGGA,210617.00,5551.2946167,N,03758.8719329,E,1,17,0.65,163.1825,M,14.1508,M,,*52
$GPGGA,210618.00,5551.2946187,N,03758.8719387,E,1,17,0.65,163.1891,M,14.1508,M,,*58
$GPGGA,210619.00,5551.2946186,N,03758.8719358,E,1,17,0.65,163.1882,M,14.1508,M,,*58
$GPGGA,210620.00,5551.2946202,N,03758.8719339,E,1,17,0.65,163.1950,M,14.1508,M,,*54
$GPGGA,210621.00,5551.2946206,N,03758.8719290,E,1,17,0.65,163.1996,M,14.1508,M,,*59
$GPGGA,210622.00,5551.2946206,N,03758.8719324,E,1,17,0.65,163.1998,M,14.1508,M,,*5A
$GPGGA,210623.00,5551.2946228,N,03758.8719334,E,1,17,0.65,163.1967,M,14.1508,M,,*56
$GPGGA,210624.00,5551.2946268,N,03758.8719353,E,1,17,0.65,163.2009,M,14.1508,M,,*56
$GPGGA,210625.00,5551.2946279,N,03758.8719396,E,1,17,0.65,163.2043,M,14.1508,M,,*50
$GPGGA,210626.00,5551.2946270,N,03758.8719427,E,1,17,0.65,163.2075,M,14.1508,M,,*52
$GPGGA,210627.00,5551.2946217,N,03758.8719424,E,1,17,0.65,163.2028,M,14.1508,M,,*59
$GPGGA,210628.00,5551.2946213,N,03758.8719414,E,1,17,0.65,163.2037,M,14.1508,M,,*5F
$GPGGA,210629.00,5551.2946185,N,03758.8719362,E,1,17,0.65,163.1967,M,14.1508,M,,*5B
$GPGGA,210630.00,5551.2946169,N,03758.8719348,E,1,17,0.65,163.1936,M,14.1508,M,,*5D
$GPGGA,210631.00,5551.2946177,N,03758.8719339,E,1,17,0.65,163.1965,M,14.1508,M,,*53
$GPGGA,210632.00,5551.2946165,N,03758.8719400,E,1,17,0.65,163.1947,M,14.1508,M,,*5E
$GPGGA,210633.00,5551.2946125,N,03758.8719394,E,1,17,0.65,163.1880,M,14.1508,M,,*5B
$GPGGA,210634.00,5551.2946088,N,03758.8719394,E,1,17,0.65,163.1778,M,14.1508,M,,*52
$GPGGA,210635.00,5551.2946103,N,03758.8719347,E,1,17,0.65,163.1797,M,14.1508,M,,*5E
$GPGGA,210636.00,5551.2946106,N,03758.8719331,E,1,17,0.65,163.1762,M,14.1508,M,,*53
$GPGGA,210637.00,5551.2946099,N,03758.8719340,E,1,17,0.65,163.1692,M,14.1508,M,,*5D
$GPGGA,210638.00,5551.2946091,N,03758.8719323,E,1,17,0.65,163.1590,M,14.1508,M,,*5E
$GPGGA,210639.00,5551.2946121,N,03758.8719317,E,1,17,0.65,163.1571,M,14.1508,M,,*5D
$GPGGA,210640.00,5551.2946161,N,03758.8719308,E,1,17,0.65,163.1613,M,14.1508,M,,*5E
$GPGGA,210641.00,5551.2946182,N,03758.8719389,E,1,17,0.65,163.1593,M,14.1508,M,,*50
$GPGGA,210642.00,5551.2946149,N,03758.8719467,E,1,17,0.65,163.1501,M,14.1508,M,,*58
$GPGGA,210643.00,5551.2946108,N,03758.8719478,E,1,17,0.65,163.1366,M,14.1508,M,,*55
$GPGGA,210644.00,5551.2946084,N,03758.8719508,E,1,17,0.65,163.1366,M,14.1508,M,,*51
$GPGGA,210645.00,5551.2946113,N,03758.8719546,E,1,17,0.65,163.1486,M,14.1508,M,,*5C
$GPGGA,210646.00,5551.2946164,N,03758.8719536,E,1,17,0.65,163.1635,M,14.1508,M,,*52
$GPGGA,210647.00,5551.2946193,N,03758.8719548,E,1,17,0.65,163.1695,M,14.1508,M,,*58
$GPGGA,210648.00,5551.2946203,N,03758.8719570,E,1,17,0.65,163.1834,M,14.1508,M,,*53
$GPGGA,210649.00,5551.2946226,N,03758.8719564,E,1,17,0.65,163.1856,M,14.1508,M,,*54
$GPGGA,210650.00,5551.2946233,N,03758.8719572,E,1,17,0.65,163.1794,M,14.1508,M,,*5E
$GPGGA,210651.00,5551.2946222,N,03758.8719551,E,1,17,0.65,163.1754,M,14.1508,M,,*52
$GPGGA,210652.00,5551.2946217,N,03758.8719527,E,1,17,0.65,163.1749,M,14.1508,M,,*5A
$GPGGA,210653.00,5551.2946213,N,03758.8719521,E,1,17,0.65,163.1738,M,14.1508,M,,*5F
$GPGGA,210654.00,5551.2946213,N,03758.8719519,E,1,17,0.65,163.1698,M,14.1508,M,,*58
$GPGGA,210655.00,5551.2946216,N,03758.8719541,E,1,17,0.65,163.1646,M,14.1508,M,,*52
$GPGGA,210656.00,5551.2946242,N,03758.8719465,E,1,17,0.65,163.1576,M,14.1508,M,,*57
$GPGGA,210657.00,5551.2946266,N,03758.8719442,E,1,17,0.65,163.1553,M,14.1508,M,,*52
$GPGGA,210658.00,5551.2946270,N,03758.8719444,E,1,17,0.65,163.1521,M,14.1508,M,,*59
$GPGGA,210659.00,5551.2946251,N,03758.8719481,E,1,17,0.65,163.1460,M,14.1508,M,,*56
$GPGGA,210700.00,5551.2946252,N,03758.8719467,E,1,17,0.65,163.1471,M,14.1508,M,,*50
$GPGGA,210701.00,5551.2946255,N,03758.8719451,E,1,17,0.65,163.1422,M,14.1508,M,,*55
$GPGGA,210702.00,5551.2946260,N,03758.8719432,E,1,17,0.65,163.1399,M,14.1508,M,,*52
$GPGGA,210703.00,5551.2946286,N,03758.8719379,E,1,17,0.65,163.1313,M,14.1508,M,,*51
$GPGGA,210704.00,5551.2946298,N,03758.8719386,E,1,17,0.64,163.1289,M,14.1508,M,,*5A
$GPGGA,210705.00,5551.2946295,N,03758.8719403,E,1,17,0.64,163.1267,M,14.1508,M,,*5C
$GPGGA,210706.00,5551.2946284,N,03758.8719430,E,1,17,0.64,163.1332,M,14.1508,M,,*5E
$GPGGA,210707.00,5551.2946295,N,03758.8719416,E,1,17,0.64,163.1418,M,14.1508,M,,*54
$GPGGA,210708.00,5551.2946277,N,03758.8719389,E,1,17,0.64,163.1451,M,14.1508,M,,*5B
$GPGGA,210709.00,5551.2946275,N,03758.8719372,E,1,17,0.64,163.1451,M,14.1508,M,,*5C
$GPGGA,210710.00,5551.2946240,N,03758.8719374,E,1,17,0.64,163.1439,M,14.1508,M,,*5A
$GPGGA,210711.00,5551.2946237,N,03758.8719387,E,1,17,0.64,163.1437,M,14.1508,M,,*59
$GPGGA,210712.00,5551.2946252,N,03758.8719355,E,1,17,0.64,163.1472,M,14.1508,M,,*57
$GPGGA,210713.00,5551.2946278,N,03758.8719349,E,1,17,0.64,163.1463,M,14.1508,M,,*53
$GPGGA,210714.00,5551.2946281,N,03758.8719344,E,1,17,0.64,163.1510,M,14.1508,M,,*5A
$GPGGA,210715.00,5551.2946282,N,03758.8719301,E,1,17,0.64,163.1528,M,14.1508,M,,*52
$GPGGA,210716.00,5551.2946248,N,03758.8719243,E,1,17,0.64,163.1558,M,14.1508,M,,*57
$GPGGA,210717.00,5551.2946243,N,03758.8719196,E,1,17,0.64,163.1626,M,14.1508,M,,*5C
$GPGGA,210718.00,5551.2946245,N,03758.8719179,E,1,17,0.64,163.1665,M,14.1508,M,,*53
$GPGGA,210719.00,5551.2946263,N,03758.8719215,E,1,17,0.64,163.1675,M,14.1508,M,,*5E
$GPGGA,210720.00,5551.2946266,N,03758.8719213,E,1,17,0.64,163.1613,M,14.1508,M,,*57
$GPGGA,210721.00,5551.2946278,N,03758.8719196,E,1,17,0.64,163.1605,M,14.1508,M,,*50
$GPGGA,210722.00,5551.2946287,N,03758.8719191,E,1,17,0.64,163.1598,M,14.1508,M,,*53
$GPGGA,210723.00,5551.2946293,N,03758.8719218,E,1,17,0.64,163.1640,M,14.1508,M,,*53
$GPGGA,210724.00,5551.2946292,N,03758.8719224,E,1,17,0.64,163.1626,M,14.1508,M,,*5A
$GPGGA,210725.00,5551.2946269,N,03758.8719201,E,1,17,0.64,163.1577,M,14.1508,M,,*5F
$GPGGA,210726.00,5551.2946260,N,03758.8719164,E,1,17,0.64,163.1490,M,14.1508,M,,*5D
$GPGGA,210727.00,5551.2946246,N,03758.8719145,E,1,17,0.64,163.1410,M,14.1508,M,,*53
$GPGGA,210728.00,5551.2946202,N,03758.8719128,E,1,17,0.64,163.1290,M,14.1508,M,,*59
$GPGGA,210729.00,5551.2946119,N,03758.8719160,E,1,17,0.64,163.1118,M,14.1508,M,,*5E
$GPGGA,210730.00,5551.2946065,N,03758.8719155,E,1,17,0.64,163.0982,M,14.1508,M,,*50
$GPGGA,210731.00,5551.2946058,N,03758.8719125,E,1,17,0.64,163.1013,M,14.1508,M,,*58
$GPGGA,210732.00,5551.2946062,N,03758.8719088,E,1,17,0.64,163.1067,M,14.1508,M,,*57
$GPGGA,210733.00,5551.2946065,N,03758.8719063,E,1,17,0.64,163.1053,M,14.1508,M,,*53
$GPGGA,210734.00,5551.2946117,N,03758.8718982,E,1,17,0.64,163.1203,M,14.1508,M,,*50
$GPGGA,210735.00,5551.2946161,N,03758.8718954,E,1,17,0.64,163.1305,M,14.1508,M,,*5C
$GPGGA,210736.00,5551.2946170,N,03758.8718934,E,1,17,0.64,163.1312,M,14.1508,M,,*5F
$GPGGA,210737.00,5551.2946161,N,03758.8718907,E,1,17,0.64,163.1269,M,14.1508,M,,*53
$GPGGA,210738.00,5551.2946169,N,03758.8718890,E,1,17,0.64,163.1301,M,14.1508,M,,*54
$GPGGA,210739.00,5551.2946218,N,03758.8718898,E,1,17,0.64,163.1435,M,14.1508,M,,*58
$GPGGA,210740.00,5551.2946275,N,03758.8718894,E,1,17,0.64,163.1650,M,14.1508,M,,*50
$GPGGA,210741.00,5551.2946295,N,03758.8718893,E,1,17,0.64,163.1740,M,14.1508,M,,*58
$GPGGA,210742.00,5551.2946301,N,03758.8718818,E,1,17,0.64,163.1783,M,14.1508,M,,*5B
$GPGGA,210743.00,5551.2946322,N,03758.8718735,E,1,17,0.64,163.1826,M,14.1508,M,,*5B
$GPGGA,210744.00,5551.2946325,N,03758.8718690,E,1,17,0.64,163.1842,M,14.1508,M,,*57
$GPGGA,210745.00,5551.2946323,N,03758.8718687,E,1,17,0.64,163.1839,M,14.1508,M,,*5A
$GPGGA,210746.00,5551.2946292,N,03758.8718729,E,1,17,0.64,163.1807,M,14.1508,M,,*5A
$GPGGA,210747.00,5551.2946321,N,03758.8718756,E,1,17,0.64,163.1854,M,14.1508,M,,*5C
$GPGGA,210748.00,5551.2946344,N,03758.8718732,E,1,17,0.64,163.1908,M,14.1508,M,,*5A
$GPGGA,210749.00,5551.2946357,N,03758.8718683,E,1,17,0.64,163.1956,M,14.1508,M,,*59
$GPGGA,210750.00,5551.2946356,N,03758.8718670,E,1,17,0.64,163.1969,M,14.1508,M,,*50
$GPGGA,210751.00,5551.2946350,N,03758.8718685,E,1,17,0.64,163.1968,M,14.1508,M,,*5C
$GPGGA,210752.00,5551.2946355,N,03758.8718697,E,1,17,0.64,163.1966,M,14.1508,M,,*57
$GPGGA,210753.00,5551.2946341,N,03758.8718705,E,1,17,0.64,163.1941,M,14.1508,M,,*5C
$GPGGA,210754.00,5551.2946364,N,03758.8718739,E,1,17,0.64,163.1962,M,14.1508,M,,*52
$GPGGA,210755.00,5551.2946364,N,03758.8718745,E,1,17,0.64,163.1949,M,14.1508,M,,*51
$GPGGA,210756.00,5551.2946381,N,03758.8718768,E,1,17,0.64,163.1944,M,14.1508,M,,*5B
$GPGGA,210757.00,5551.2946379,N,03758.8718777,E,1,17,0.64,163.2002,M,14.1508,M,,*5B
$GPGGA,210758.00,5551.2946346,N,03758.8718750,E,1,17,0.64,163.2044,M,14.1508,M,,*5F
$GPGGA,210759.00,5551.2946327,N,03758.8718721,E,1,17,0.64,163.2052,M,14.1508,M,,*58
$GPGGA,210800.00,5551.2946301,N,03758.8718680,E,1,17,0.64,163.2006,M,14.1508,M,,*54
$GPGGA,210801.00,5551.2946288,N,03758.8718680,E,1,17,0.64,163.1996,M,14.1508,M,,*56
$GPGGA,210802.00,5551.2946277,N,03758.8718681,E,1,17,0.64,163.2005,M,14.1508,M,,*54
$GPGGA,210803.00,5551.2946272,N,03758.8718652,E,1,17,0.64,163.2058,M,14.1508,M,,*56
$GPGGA,210804.00,5551.2946272,N,03758.8718658,E,1,17,0.64,163.2068,M,14.1508,M,,*58
$GPGGA,210805.00,5551.2946265,N,03758.8718684,E,1,17,0.64,163.2045,M,14.1508,M,,*51
$GPGGA,210806.00,5551.2946255,N,03758.8718699,E,1,17,0.64,163.2052,M,14.1508,M,,*5B
$GPGGA,210807.00,5551.2946240,N,03758.8718707,E,1,17,0.64,163.2013,M,14.1508,M,,*5D
$GPGGA,210808.00,5551.2946232,N,03758.8718713,E,1,17,0.64,163.1982,M,14.1508,M,,*50
$GPGGA,210809.00,5551.2946223,N,03758.8718741,E,1,17,0.64,163.1945,M,14.1508,M,,*5D
$GPGGA,210810.00,5551.2946220,N,03758.8718774,E,1,17,0.64,163.1897,M,14.1508,M,,*5E
$GPGGA,210811.00,5551.2946180,N,03758.8718785,E,1,17,0.64,163.1867,M,14.1508,M,,*57
$GPGGA,210812.00,5551.2946173,N,03758.8718782,E,1,17,0.64,163.1837,M,14.1508,M,,*5A
$GPGGA,210813.00,5551.2946174,N,03758.8718802,E,1,17,0.64,163.1817,M,14.1508,M,,*59
$GPGGA,210814.00,5551.2946169,N,03758.8718799,E,1,17,0.64,163.1836,M,14.1508,M,,*5C
$GPGGA,210815.00,5551.2946174,N,03758.8718789,E,1,17,0.64,163.1882,M,14.1508,M,,*5F
$GPGGA,210816.00,5551.2946138,N,03758.8718769,E,1,17,0.64,163.1890,M,14.1508,M,,*59
$GPGGA,210817.00,5551.2946121,N,03758.8718763,E,1,17,0.64,163.1863,M,14.1508,M,,*56
$GPGGA,210818.00,5551.2946091,N,03758.8718763,E,1,17,0.64,163.1820,M,14.1508,M,,*54
$GPGGA,210819.00,5551.2946085,N,03758.8718751,E,1,17,0.64,163.1837,M,14.1508,M,,*57
$GPGGA,210820.00,5551.2946112,N,03758.8718741,E,1,17,0.64,163.1892,M,14.1508,M,,*5C
$GPGGA,210821.00,5551.2946130,N,03758.8718734,E,1,17,0.64,163.1899,M,14.1508,M,,*54
$GPGGA,210822.00,5551.2946116,N,03758.8718740,E,1,17,0.64,163.1841,M,14.1508,M,,*55
$GPGGA,210823.00,5551.2946089,N,03758.8718752,E,1,17,0.64,163.1786,M,14.1508,M,,*54
$GPGGA,210824.00,5551.2946064,N,03758.8718741,E,1,17,0.64,163.1774,M,14.1508,M,,*5F
$GPGGA,210825.00,5551.2946044,N,03758.8718750,E,1,17,0.64,163.1686,M,14.1508,M,,*50
$GPGGA,210826.00,5551.2946004,N,03758.8718765,E,1,17,0.64,163.1580,M,14.1508,M,,*54
$GPGGA,210827.00,5551.2945963,N,03758.8718784,E,1,17,0.64,163.1476,M,14.1508,M,,*59
$GPGGA,210828.00,5551.2945953,N,03758.8718820,E,1,17,0.64,163.1411,M,14.1508,M,,*55
$GPGGA,210829.00,5551.2946005,N,03758.8718811,E,1,17,0.64,163.1508,M,14.1508,M,,*56
$GPGGA,210830.00,5551.2946049,N,03758.8718809,E,1,17,0.64,163.1673,M,14.1508,M,,*50
$GPGGA,210831.00,5551.2946133,N,03758.8718829,E,1,17,0.64,163.1913,M,14.1508,M,,*56
$GPGGA,210832.00,5551.2946180,N,03758.8718891,E,1,17,0.64,163.2012,M,14.1508,M,,*55
$GPGGA,210833.00,5551.2946208,N,03758.8718961,E,1,17,0.64,163.2092,M,14.1508,M,,*51
$GPGGA,210834.00,5551.2946200,N,03758.8718939,E,1,17,0.64,163.2061,M,14.1508,M,,*5F
$GPGGA,210835.00,5551.2946197,N,03758.8718890,E,1,17,0.64,163.2019,M,14.1508,M,,*5E
$GPGGA,210836.00,5551.2946191,N,03758.8718796,E,1,17,0.64,163.1938,M,14.1508,M,,*5B
$GPGGA,210837.00,5551.2946198,N,03758.8718716,E,1,17,0.64,163.1964,M,14.1508,M,,*52
$GPGGA,210838.00,5551.2946189,N,03758.8718676,E,1,17,0.64,163.1943,M,14.1508,M,,*5F
$GPGGA,210839.00,5551.2946191,N,03758.8718674,E,1,17,0.64,163.1977,M,14.1508,M,,*52
$GPGGA,210840.00,5551.2946173,N,03758.8718630,E,1,17,0.64,163.2009,M,14.1508,M,,*53
$GPGGA,210841.00,5551.2946160,N,03758.8718574,E,1,17,0.64,163.2006,M,14.1508,M,,*5C
$GPGGA,210842.00,5551.2946152,N,03758.8718526,E,1,17,0.64,163.2060,M,14.1508,M,,*59
$GPGGA,210843.00,5551.2946154,N,03758.8718527,E,1,17,0.64,163.2112,M,14.1508,M,,*5B
$GPGGA,210844.00,5551.2946168,N,03758.8718524,E,1,17,0.64,163.2142,M,14.1508,M,,*55
$GPGGA,210845.00,5551.2946144,N,03758.8718524,E,1,17,0.64,163.2176,M,14.1508,M,,*5D
$GPGGA,210846.00,5551.2946125,N,03758.8718500,E,1,17,0.64,163.2196,M,14.1508,M,,*51
$GPGGA,210847.00,5551.2946113,N,03758.8718504,E,1,17,0.64,163.2200,M,14.1508,M,,*5D
$GPGGA,210848.00,5551.2946103,N,03758.8718497,E,1,17,0.64,163.2193,M,14.1508,M,,*51
$GPGGA,210849.00,5551.2946114,N,03758.8718487,E,1,17,0.64,163.2214,M,14.1508,M,,*5B
$GPGGA,210850.00,5551.2946113,N,03758.8718477,E,1,17,0.64,163.2222,M,14.1508,M,,*5E
$GPGGA,210851.00,5551.2946085,N,03758.8718461,E,1,17,0.64,163.2189,M,14.1508,M,,*54
$GPGGA,210852.00,5551.2946060,N,03758.8718460,E,1,17,0.64,163.2186,M,14.1508,M,,*52
$GPGGA,210853.00,5551.2946025,N,03758.8718479,E,1,17,0.64,163.2117,M,14.1508,M,,*52
$GPGGA,210854.00,5551.2945985,N,03758.8718471,E,1,17,0.64,163.2069,M,14.1508,M,,*55
$GPGGA,210855.00,5551.2946012,N,03758.8718450,E,1,17,0.64,163.2152,M,14.1508,M,,*5A
$GPGGA,210856.00,5551.2946047,N,03758.8718443,E,1,17,0.64,163.2147,M,14.1508,M,,*5F
$GPGGA,210857.00,5551.2945996,N,03758.8718466,E,1,17,0.64,163.1985,M,14.1508,M,,*5A
$GPGGA,210858.00,5551.2945952,N,03758.8718479,E,1,17,0.64,163.1936,M,14.1508,M,,*5B
$GPGGA,210859.00,5551.2945938,N,03758.8718439,E,1,17,0.64,163.1984,M,14.1508,M,,*5B
$GPGGA,210900.00,5551.2945891,N,03758.8718474,E,1,17,0.64,163.1943,M,14.1508,M,,*56
$GPGGA,210901.00,5551.2945904,N,03758.8718463,E,1,17,0.64,163.1930,M,14.1508,M,,*58
$GPGGA,210902.00,5551.2945962,N,03758.8718457,E,1,17,0.64,163.2080,M,14.1508,M,,*5D
$GPGGA,210903.00,5551.2946047,N,03758.8718459,E,1,17,0.64,163.2272,M,14.1508,M,,*50
$GPGGA,210904.00,5551.2946091,N,03758.8718455,E,1,17,0.64,163.2472,M,14.1508,M,,*56
$GPGGA,210905.00,5551.2946102,N,03758.8718413,E,1,17,0.64,163.2591,M,14.1508,M,,*52
$GPGGA,210906.00,5551.2946137,N,03758.8718401,E,1,17,0.64,163.2660,M,14.1508,M,,*59
$GPGGA,210907.00,5551.2946206,N,03758.8718409,E,1,17,0.64,163.2759,M,14.1508,M,,*5A
$GPGGA,210908.00,5551.2946236,N,03758.8718431,E,1,17,0.64,163.2851,M,14.1508,M,,*5A
$GPGGA,210909.00,5551.2946264,N,03758.8718325,E,1,17,0.64,163.2867,M,14.1508,M,,*5B
$GPGGA,210910.00,5551.2946259,N,03758.8718245,E,1,17,0.64,163.2815,M,14.1508,M,,*5F
$GPGGA,210911.00,5551.2946216,N,03758.8718229,E,1,17,0.64,163.2799,M,14.1508,M,,*54
$GPGGA,210912.00,5551.2946182,N,03758.8718219,E,1,17,0.64,163.2787,M,14.1508,M,,*55
$GPGGA,210913.00,5551.2946166,N,03758.8718213,E,1,17,0.64,163.2815,M,14.1508,M,,*50
$GPGGA,210914.00,5551.2946149,N,03758.8718243,E,1,17,0.64,163.2815,M,14.1508,M,,*5F
$GPGGA,210915.00,5551.2946114,N,03758.8718275,E,1,17,0.64,163.2745,M,14.1508,M,,*59
$GPGGA,210916.00,5551.2946065,N,03758.8718297,E,1,17,0.64,163.2613,M,14.1508,M,,*53
$GPGGA,210917.00,5551.2946066,N,03758.8718321,E,1,17,0.64,163.2617,M,14.1508,M,,*59
$GPGGA,210918.00,5551.2946100,N,03758.8718296,E,1,17,0.64,163.2648,M,14.1508,M,,*50
$GPGGA,210919.00,5551.2946121,N,03758.8718304,E,1,17,0.64,163.2675,M,14.1508,M,,*56
$GPGGA,210920.00,5551.2946108,N,03758.8718329,E,1,17,0.64,163.2653,M,14.1508,M,,*5C
$GPGGA,210921.00,5551.2946105,N,03758.8718376,E,1,17,0.64,163.2700,M,14.1508,M,,*5D
$GPGGA,210922.00,5551.2946106,N,03758.8718437,E,1,17,0.64,163.2774,M,14.1508,M,,*5C
$GPGGA,210923.00,5551.2946158,N,03758.8718500,E,1,17,0.64,163.2936,M,14.1508,M,,*5B
$GPGGA,210924.00,5551.2946188,N,03758.8718559,E,1,17,0.64,163.3080,M,14.1508,M,,*58
$GPGGA,210925.00,5551.2946195,N,03758.8718561,E,1,17,0.64,163.3096,M,14.1508,M,,*59
$GPGGA,210926.00,5551.2946180,N,03758.8718573,E,1,17,0.64,163.3104,M,14.1508,M,,*57
$GPGGA,210927.00,5551.2946153,N,03758.8718529,E,1,17,0.64,163.3030,M,14.1508,M,,*51
$GPGGA,210928.00,5551.2946141,N,03758.8718422,E,1,17,0.64,163.2943,M,14.1508,M,,*5B
$GPGGA,210929.00,5551.2946146,N,03758.8718339,E,1,17,0.64,163.2885,M,14.1508,M,,*5B
$GPGGA,210930.00,5551.2946155,N,03758.8718295,E,1,17,0.64,163.2897,M,14.1508,M,,*55
$GPGGA,210931.00,5551.2946167,N,03758.8718233,E,1,17,0.64,163.2866,M,14.1508,M,,*57
$GPGGA,210932.00,5551.2946196,N,03758.8718144,E,1,17,0.64,163.2877,M,14.1508,M,,*59
$GPGGA,210933.00,5551.2946251,N,03758.8718099,E,1,17,0.64,163.2969,M,14.1508,M,,*5F
$GPGGA,210934.00,5551.2946275,N,03758.8718064,E,1,17,0.64,163.3054,M,14.1508,M,,*5A
$GPGGA,210935.00,5551.2946305,N,03758.8718069,E,1,17,0.64,163.2972,M,14.1508,M,,*5C
$GPGGA,210936.00,5551.2946305,N,03758.8718125,E,1,17,0.64,163.2935,M,14.1508,M,,*55
$GPGGA,210937.00,5551.2946339,N,03758.8718121,E,1,17,0.64,163.2967,M,14.1508,M,,*58
$GPGGA,210938.00,5551.2946321,N,03758.8718286,E,1,17,0.64,163.2852,M,14.1508,M,,*57
$GPGGA,210939.00,5551.2946337,N,03758.8718455,E,1,17,0.64,163.2839,M,14.1508,M,,*54
$GPGGA,210940.00,5551.2946361,N,03758.8718494,E,1,17,0.64,163.2835,M,14.1508,M,,*58
$GPGGA,210941.00,5551.2946365,N,03758.8718480,E,1,17,0.64,163.2793,M,14.1508,M,,*5B
$GPGGA,210942.00,5551.2946318,N,03758.8718433,E,1,17,0.64,163.2735,M,14.1508,M,,*56
$GPGGA,210943.00,5551.2946288,N,03758.8718404,E,1,17,0.64,163.2717,M,14.1508,M,,*5B
$GPGGA,210944.00,5551.2946272,N,03758.8718423,E,1,17,0.64,163.2742,M,14.1508,M,,*5C
$GPGGA,210945.00,5551.2946236,N,03758.8718409,E,1,17,0.64,163.2680,M,14.1508,M,,*5A
$GPGGA,210946.00,5551.2946215,N,03758.8718394,E,1,17,0.64,163.2640,M,14.1508,M,,*57
$GPGGA,210947.00,5551.2946220,N,03758.8718381,E,1,17,0.64,163.2698,M,14.1508,M,,*51
$GPGGA,210948.00,5551.2946233,N,03758.8718369,E,1,17,0.64,163.2747,M,14.1508,M,,*59
$GPGGA,210949.00,5551.2946263,N,03758.8718338,E,1,17,0.64,163.2759,M,14.1508,M,,*56
$GPGGA,210950.00,5551.2946279,N,03758.8718293,E,1,17,0.64,163.2775,M,14.1508,M,,*5B
$GPGGA,210951.00,5551.2946298,N,03758.8718250,E,1,17,0.64,163.2793,M,14.1508,M,,*52
$GPGGA,210952.00,5551.2946310,N,03758.8718230,E,1,17,0.64,163.2806,M,14.1508,M,,*55
$GPGGA,210953.00,5551.2946325,N,03758.8718198,E,1,17,0.64,163.2891,M,14.1508,M,,*5D
$GPGGA,210954.00,5551.2946304,N,03758.8718200,E,1,17,0.64,163.2925,M,14.1508,M,,*55
$GPGGA,210955.00,5551.2946303,N,03758.8718221,E,1,17,0.64,163.2910,M,14.1508,M,,*56
$GPGGA,210956.00,5551.2946302,N,03758.8718216,E,1,17,0.64,163.2944,M,14.1508,M,,*51
$GPGGA,210957.00,5551.2946294,N,03758.8718257,E,1,17,0.64,163.2956,M,14.1508,M,,*58
$GPGGA,210958.00,5551.2946264,N,03758.8718290,E,1,17,0.64,163.2925,M,14.1508,M,,*57
$GPGGA,210959.00,5551.2946261,N,03758.8718343,E,1,17,0.64,163.2934,M,14.1508,M,,*5C
$GPGGA,211000.00,5551.2946242,N,03758.8718403,E,1,17,0.64,163.2894,M,14.1508,M,,*51
$GPGGA,211001.00,5551.2946225,N,03758.8718405,E,1,17,0.64,163.2794,M,14.1508,M,,*58
$GPGGA,211002.00,5551.2946238,N,03758.8718393,E,1,17,0.64,163.2804,M,14.1508,M,,*59
$GPGGA,211003.00,5551.2946267,N,03758.8718325,E,1,17,0.64,163.2804,M,14.1508,M,,*5F
$GPGGA,211004.00,5551.2946283,N,03758.8718330,E,1,17,0.64,163.2833,M,14.1508,M,,*52
$GPGGA,211005.00,5551.2946284,N,03758.8718327,E,1,17,0.64,163.2776,M,14.1508,M,,*5C
$GPGGA,211006.00,5551.2946222,N,03758.8718350,E,1,17,0.64,163.2697,M,14.1508,M,,*5D
$GPGGA,211007.00,5551.2946175,N,03758.8718375,E,1,17,0.64,163.2619,M,14.1508,M,,*5C
$GPGGA,211008.00,5551.2946159,N,03758.8718364,E,1,17,0.64,163.2558,M,14.1508,M,,*5B
$GPGGA,211009.00,5551.2946053,N,03758.8718433,E,1,17,0.64,163.2331,M,14.1508,M,,*5D
$GPGGA,211010.00,5551.2945986,N,03758.8718473,E,1,17,0.64,163.2187,M,14.1508,M,,*5C
$GPGGA,211011.00,5551.2945927,N,03758.8718514,E,1,17,0.64,163.2062,M,14.1508,M,,*5C
$GPGGA,211012.00,5551.2945871,N,03758.8718552,E,1,17,0.64,163.1921,M,14.1508,M,,*52
$GPGGA,211013.00,5551.2945878,N,03758.8718538,E,1,17,0.64,163.1912,M,14.1508,M,,*56
$GPGGA,211014.00,5551.2945973,N,03758.8718484,E,1,17,0.64,163.2130,M,14.1508,M,,*56
$GPGGA,211015.00,5551.2946027,N,03758.8718430,E,1,17,0.64,163.2250,M,14.1508,M,,*56
$GPGGA,211016.00,5551.2946027,N,03758.8718431,E,1,17,0.64,163.2208,M,14.1508,M,,*59
$GPGGA,211017.00,5551.2945986,N,03758.8718447,E,1,17,0.64,163.2102,M,14.1508,M,,*51
$GPGGA,211018.00,5551.2946008,N,03758.8718422,E,1,17,0.64,163.2145,M,14.1508,M,,*52
$GPGGA,211019.00,5551.2946078,N,03758.8718403,E,1,17,0.64,163.2298,M,14.1508,M,,*54
$GPGGA,211020.00,5551.2946119,N,03758.8718418,E,1,17,0.64,163.2385,M,14.1508,M,,*5F
$GPGGA,211021.00,5551.2946202,N,03758.8718361,E,1,17,0.64,163.2538,M,14.1508,M,,*5E
$GPGGA,211022.00,5551.2946205,N,03758.8718336,E,1,17,0.64,163.2535,M,14.1508,M,,*55
$GPGGA,211023.00,5551.2946218,N,03758.8718339,E,1,17,0.64,163.2574,M,14.1508,M,,*52
$GPGGA,211024.00,5551.2946217,N,03758.8718298,E,1,17,0.64,163.2582,M,14.1508,M,,*59
$GPGGA,211025.00,5551.2946221,N,03758.8718292,E,1,17,0.64,163.2586,M,14.1508,M,,*53
$GPGGA,211026.00,5551.2946227,N,03758.8718313,E,1,17,0.64,163.2595,M,14.1508,M,,*5C
$GPGGA,211027.00,5551.2946262,N,03758.8718392,E,1,17,0.64,163.2631,M,14.1508,M,,*58
$GPGGA,211028.00,5551.2946302,N,03758.8718508,E,1,17,0.64,163.2667,M,14.1508,M,,*56
$GPGGA,211029.00,5551.2946293,N,03758.8718565,E,1,17,0.64,163.2695,M,14.1508,M,,*58
$GPGGA,211030.00,5551.2946288,N,03758.8718589,E,1,17,0.64,163.2658,M,14.1508,M,,*59
$GPGGA,211031.00,5551.2946250,N,03758.8718523,E,1,17,0.64,163.2623,M,14.1508,M,,*51
$GPGGA,211032.00,5551.2946229,N,03758.8718530,E,1,17,0.64,163.2604,M,14.1508,M,,*5B
$GPGGA,211033.00,5551.2946253,N,03758.8718520,E,1,17,0.64,163.2714,M,14.1508,M,,*56
$GPGGA,211034.00,5551.2946265,N,03758.8718501,E,1,17,0.64,163.2714,M,14.1508,M,,*57
$GPGGA,211035.00,5551.2946255,N,03758.8718497,E,1,17,0.64,163.2593,M,14.1508,M,,*56
$GPGGA,211036.00,5551.2946214,N,03758.8718501,E,1,17,0.64,163.2476,M,14.1508,M,,*54
$GPGGA,211037.00,5551.2946127,N,03758.8718567,E,1,17,0.64,163.2353,M,14.1508,M,,*56
$GPGGA,211038.00,5551.2946071,N,03758.8718631,E,1,17,0.64,163.2256,M,14.1508,M,,*5F
$GPGGA,211039.00,5551.2946121,N,03758.8718641,E,1,17,0.64,163.2374,M,14.1508,M,,*5C
$GPGGA,211040.00,5551.2946160,N,03758.8718671,E,1,17,0.64,163.2347,M,14.1508,M,,*54
$GPGGA,211041.00,5551.2946164,N,03758.8718700,E,1,17,0.64,163.2293,M,14.1508,M,,*5E
$GPGGA,211042.00,5551.2946125,N,03758.8718757,E,1,17,0.64,163.2211,M,14.1508,M,,*50
$GPGGA,211043.00,5551.2946170,N,03758.8718765,E,1,17,0.64,163.2210,M,14.1508,M,,*51
$GPGGA,211044.00,5551.2946213,N,03758.8718774,E,1,17,0.64,163.2250,M,14.1508,M,,*54
$GPGGA,211045.00,5551.2946202,N,03758.8718748,E,1,17,0.64,163.2296,M,14.1508,M,,*50
$GPGGA,211046.00,5551.2946195,N,03758.8718704,E,1,17,0.64,163.2343,M,14.1508,M,,*5F
$GPGGA,211047.00,5551.2946193,N,03758.8718737,E,1,17,0.64,163.2359,M,14.1508,M,,*53
$GPGGA,211048.00,5551.2946197,N,03758.8718756,E,1,17,0.64,163.2358,M,14.1508,M,,*5E
$GPGGA,211049.00,5551.2946235,N,03758.8718759,E,1,17,0.64,163.2395,M,14.1508,M,,*5A
$GPGGA,211050.00,5551.2946232,N,03758.8718724,E,1,17,0.64,163.2480,M,14.1508,M,,*5C
$GPGGA,211051.00,5551.2946189,N,03758.8718712,E,1,17,0.64,163.2426,M,14.1508,M,,*57
$GPGGA,211052.00,5551.2946173,N,03758.8718694,E,1,17,0.64,163.2356,M,14.1508,M,,*5E
$GPGGA,211053.00,5551.2946175,N,03758.8718687,E,1,17,0.64,163.2374,M,14.1508,M,,*5B
$GPGGA,211054.00,5551.2946210,N,03758.8718688,E,1,17,0.64,163.2460,M,14.1508,M,,*51
$GPGGA,211055.00,5551.2946223,N,03758.8718673,E,1,17,0.64,163.2488,M,14.1508,M,,*52
$GPGGA,211056.00,5551.2946235,N,03758.8718685,E,1,17,0.64,163.2433,M,14.1508,M,,*5F
$GPGGA,211057.00,5551.2946199,N,03758.8718676,E,1,17,0.64,163.2353,M,14.1508,M,,*56
$GPGGA,211058.00,5551.2946212,N,03758.8718687,E,1,17,0.64,163.2397,M,14.1508,M,,*5F
$GPGGA,211059.00,5551.2946233,N,03758.8718714,E,1,17,0.64,163.2472,M,14.1508,M,,*5A
$GPGGA,211100.00,5551.2946234,N,03758.8718731,E,1,17,0.64,163.2450,M,14.1508,M,,*57
$GPGGA,211101.00,5551.2946211,N,03758.8718714,E,1,17,0.64,163.2403,M,14.1508,M,,*50
$GPGGA,211102.00,5551.2946133,N,03758.8718698,E,1,17,0.64,163.2242,M,14.1508,M,,*56
$GPGGA,211103.00,5551.2945988,N,03758.8718768,E,1,17,0.64,163.1928,M,14.1508,M,,*56
$GPGGA,211104.00,5551.2945910,N,03758.8718766,E,1,17,0.64,163.1730,M,14.1508,M,,*59
$GPGGA,211105.00,5551.2945869,N,03758.8718777,E,1,17,0.64,163.1627,M,14.1508,M,,*50
$GPGGA,211106.00,5551.2945880,N,03758.8718829,E,1,17,0.64,163.1666,M,14.1508,M,,*55
$GPGGA,211107.00,5551.2945929,N,03758.8718810,E,1,17,0.64,163.1718,M,14.1508,M,,*54
$GPGGA,211108.00,5551.2945941,N,03758.8718819,E,1,17,0.64,163.1668,M,14.1508,M,,*5A
$GPGGA,211109.00,5551.2945899,N,03758.8718825,E,1,17,0.64,163.1539,M,14.1508,M,,*57
$GPGGA,211110.00,5551.2945839,N,03758.8718845,E,1,17,0.64,163.1298,M,14.1508,M,,*5F
$GPGGA,211111.00,5551.2945865,N,03758.8718843,E,1,17,0.64,163.1295,M,14.1508,M,,*5C
$GPGGA,211112.00,5551.2945894,N,03758.8718866,E,1,17,0.64,163.1350,M,14.1508,M,,*5E
$GPGGA,211113.00,5551.2945791,N,03758.8718923,E,1,17,0.64,163.1157,M,14.1508,M,,*50
$GPGGA,211114.00,5551.2945778,N,03758.8718930,E,1,17,0.64,163.1177,M,14.1508,M,,*50
$GPGGA,211115.00,5551.2945753,N,03758.8718936,E,1,17,0.64,163.1175,M,14.1508,M,,*5C
$GPGGA,211116.00,5551.2945698,N,03758.8718948,E,1,17,0.64,163.1093,M,14.1508,M,,*59
$GPGGA,211117.00,5551.2945671,N,03758.8718912,E,1,17,0.64,163.1013,M,14.1508,M,,*58
$GPGGA,211118.00,5551.2945704,N,03758.8718884,E,1,17,0.64,163.1040,M,14.1508,M,,*5C
$GPGGA,211119.00,5551.2945710,N,03758.8718908,E,1,17,0.64,163.0997,M,14.1508,M,,*5F
$GPGGA,211120.00,5551.2945752,N,03758.8718873,E,1,17,0.64,163.1031,M,14.1508,M,,*5A
$GPGGA,211121.00,5551.2945825,N,03758.8718830,E,1,17,0.64,163.1139,M,14.1508,M,,*5A
$GPGGA,211122.00,5551.2945844,N,03758.8718857,E,1,17,0.64,163.1231,M,14.1508,M,,*54
$GPGGA,211123.00,5551.2945670,N,03758.8718939,E,1,17,0.64,163.0751,M,14.1508,M,,*57
$GPGGA,211124.00,5551.2945687,N,03758.8718991,E,1,17,0.64,163.0759,M,14.1508,M,,*52
$GPGGA,211125.00,5551.2945750,N,03758.8718885,E,1,17,0.64,163.0813,M,14.1508,M,,*5D
$GPGGA,211126.00,5551.2945737,N,03758.8718795,E,1,17,0.64,163.0718,M,14.1508,M,,*55
$GPGGA,211127.00,5551.2945768,N,03758.8718748,E,1,17,0.64,163.0583,M,14.1508,M,,*5E
$GPGGA,211128.00,5551.2945851,N,03758.8718674,E,1,17,0.64,163.0729,M,14.1508,M,,*58
$GPGGA,211129.00,5551.2945964,N,03758.8718677,E,1,17,0.64,163.0937,M,14.1508,M,,*5C
$GPGGA,211130.00,5551.2945981,N,03758.8718705,E,1,17,0.64,163.1099,M,14.1508,M,,*57
$GPGGA,211131.00,5551.2946012,N,03758.8718691,E,1,17,0.64,163.1201,M,14.1508,M,,*59
$GPGGA,211132.00,5551.2946039,N,03758.8718644,E,1,17,0.64,163.1326,M,14.1508,M,,*5F
$GPGGA,211133.00,5551.2946032,N,03758.8718599,E,1,17,0.64,163.1344,M,14.1508,M,,*52
$GPGGA,211134.00,5551.2946036,N,03758.8718562,E,1,17,0.64,163.1381,M,14.1508,M,,*5C
$GPGGA,211135.00,5551.2946023,N,03758.8718553,E,1,17,0.64,163.1394,M,14.1508,M,,*5F
$GPGGA,211136.00,5551.2946022,N,03758.8718531,E,1,17,0.64,163.1414,M,14.1508,M,,*56
$GPGGA,211137.00,5551.2946064,N,03758.8718506,E,1,17,0.64,163.1519,M,14.1508,M,,*5D
$GPGGA,211138.00,5551.2946083,N,03758.8718497,E,1,17,0.64,163.1571,M,14.1508,M,,*5C
$GPGGA,211139.00,5551.2946105,N,03758.8718496,E,1,17,0.64,163.1621,M,14.1508,M,,*55
$GPGGA,211140.00,5551.2946112,N,03758.8718473,E,1,17,0.64,163.1664,M,14.1508,M,,*57
$GPGGA,211141.00,5551.2946087,N,03758.8718480,E,1,17,0.64,163.1646,M,14.1508,M,,*57
$GPGGA,211142.00,5551.2946095,N,03758.8718490,E,1,17,0.64,163.1656,M,14.1508,M,,*57
$GPGGA,211143.00,5551.2946086,N,03758.8718520,E,1,17,0.64,163.1648,M,14.1508,M,,*51
$GPGGA,211144.00,5551.2946075,N,03758.8718508,E,1,17,0.64,163.1647,M,14.1508,M,,*5F
$GPGGA,211145.00,5551.2946071,N,03758.8718510,E,1,17,0.64,163.1683,M,14.1508,M,,*5B
$GPGGA,211146.00,5551.2946063,N,03758.8718518,E,1,17,0.64,163.1697,M,14.1508,M,,*56
$GPGGA,211147.00,5551.2946054,N,03758.8718526,E,1,17,0.64,163.1737,M,14.1508,M,,*55
$GPGGA,211148.00,5551.2946053,N,03758.8718589,E,1,17,0.64,163.1780,M,14.1508,M,,*54
$GPGGA,211149.00,5551.2946038,N,03758.8718554,E,1,17,0.64,163.1784,M,14.1508,M,,*5C
$GPGGA,211150.00,5551.2946055,N,03758.8718532,E,1,17,0.64,163.1814,M,14.1508,M,,*59
$GPGGA,211151.00,5551.2946074,N,03758.8718584,E,1,17,0.64,163.1845,M,14.1508,M,,*52
$GPGGA,211152.00,5551.2946103,N,03758.8718620,E,1,17,0.64,163.1926,M,14.1508,M,,*59
$GPGGA,211153.00,5551.2946140,N,03758.8718661,E,1,17,0.64,163.1990,M,14.1508,M,,*57
$GPGGA,211154.00,5551.2946151,N,03758.8718729,E,1,17,0.64,163.2005,M,14.1508,M,,*5B
$GPGGA,211155.00,5551.2946144,N,03758.8718760,E,1,17,0.64,163.1990,M,14.1508,M,,*55
$GPGGA,211156.00,5551.2946129,N,03758.8718773,E,1,17,0.64,163.1989,M,14.1508,M,,*57
$GPGGA,211157.00,5551.2946131,N,03758.8718756,E,1,17,0.64,163.2003,M,14.1508,M,,*50
$GPGGA,211158.00,5551.2946125,N,03758.8718739,E,1,17,0.64,163.1998,M,14.1508,M,,*5B
$GPGGA,211159.00,5551.2946130,N,03758.8718749,E,1,17,0.64,163.2006,M,14.1508,M,,*54
$GPGGA,211200.00,5551.2946144,N,03758.8718769,E,1,17,0.64,163.1999,M,14.1508,M,,*56
$GPGGA,211201.00,5551.2946150,N,03758.8718771,E,1,17,0.64,163.2008,M,14.1508,M,,*59
$GPGGA,211202.00,5551.2946163,N,03758.8718814,E,1,17,0.64,163.2001,M,14.1508,M,,*5F
$GPGGA,211203.00,5551.2946125,N,03758.8718851,E,1,17,0.64,163.2047,M,14.1508,M,,*5F
$GPGGA,211204.00,5551.2946103,N,03758.8718869,E,1,17,0.64,163.2134,M,14.1508,M,,*52
$GPGGA,211205.00,5551.2946075,N,03758.8718866,E,1,17,0.64,163.2080,M,14.1508,M,,*52
$GPGGA,211206.00,5551.2946045,N,03758.8718858,E,1,17,0.64,163.2005,M,14.1508,M,,*52
$GPGGA,211207.00,5551.2946019,N,03758.8718892,E,1,17,0.64,163.1957,M,14.1508,M,,*51
$GPGGA,211208.00,5551.2946007,N,03758.8718922,E,1,17,0.64,163.1918,M,14.1508,M,,*50
$GPGGA,211209.00,5551.2946012,N,03758.8718960,E,1,17,0.64,163.1913,M,14.1508,M,,*58
$GPGGA,211210.00,5551.2946002,N,03758.8719002,E,1,17,0.64,163.1857,M,14.1508,M,,*5C
$GPGGA,211211.00,5551.2945972,N,03758.8718994,E,1,17,0.64,163.1754,M,14.1508,M,,*5B
$GPGGA,211212.00,5551.2945942,N,03758.8719023,E,1,17,0.64,163.1706,M,14.1508,M,,*58
$GPGGA,211213.00,5551.2945937,N,03758.8719070,E,1,17,0.64,163.1733,M,14.1508,M,,*5B
$GPGGA,211214.00,5551.2945899,N,03758.8719122,E,1,17,0.64,163.1658,M,14.1508,M,,*53
$GPGGA,211215.00,5551.2945908,N,03758.8719107,E,1,17,0.64,163.1732,M,14.1508,M,,*51
$GPGGA,211216.00,5551.2945862,N,03758.8719163,E,1,17,0.64,163.1663,M,14.1508,M,,*58
$GPGGA,211217.00,5551.2945874,N,03758.8719191,E,1,17,0.64,163.1666,M,14.1508,M,,*56
$GPGGA,211218.00,5551.2945931,N,03758.8719174,E,1,17,0.64,163.1795,M,14.1508,M,,*5F
$GPGGA,211219.00,5551.2945940,N,03758.8719171,E,1,17,0.64,163.1777,M,14.1508,M,,*51
$GPGGA,211220.00,5551.2945988,N,03758.8719188,E,1,17,0.64,163.1856,M,14.1508,M,,*55
$GPGGA,211221.00,5551.2945989,N,03758.8719189,E,1,17,0.64,163.1820,M,14.1508,M,,*55
$GPGGA,211222.00,5551.2945947,N,03758.8719147,E,1,17,0.64,163.1668,M,14.1508,M,,*54
$GPGGA,211223.00,5551.2945937,N,03758.8719123,E,1,17,0.64,163.1623,M,14.1508,M,,*5F
$GPGGA,211224.00,5551.2945980,N,03758.8719159,E,1,17,0.64,163.1734,M,14.1508,M,,*5E
$GPGGA,211225.00,5551.2945967,N,03758.8719215,E,1,17,0.64,163.1747,M,14.1508,M,,*59
$GPGGA,211226.00,5551.2945963,N,03758.8719244,E,1,17,0.64,163.1763,M,14.1508,M,,*5C
$GPGGA,211227.00,5551.2946019,N,03758.8719188,E,1,17,0.64,163.1899,M,14.1508,M,,*53
$GPGGA,211228.00,5551.2946021,N,03758.8719126,E,1,17,0.64,163.1932,M,14.1508,M,,*53
$GPGGA,211229.00,5551.2946061,N,03758.8719155,E,1,17,0.64,163.2024,M,14.1508,M,,*5F
$GPGGA,211230.00,5551.2946067,N,03758.8719200,E,1,17,0.64,163.2035,M,14.1508,M,,*52
$GPGGA,211231.00,5551.2946089,N,03758.8719236,E,1,17,0.64,163.2046,M,14.1508,M,,*52
$GPGGA,211232.00,5551.2946083,N,03758.8719242,E,1,17,0.64,163.2051,M,14.1508,M,,*5E
$GPGGA,211233.00,5551.2946008,N,03758.8719277,E,1,17,0.64,163.1977,M,14.1508,M,,*54
$GPGGA,211234.00,5551.2946007,N,03758.8719294,E,1,17,0.64,163.1979,M,14.1508,M,,*5F
$GPGGA,211235.00,5551.2946014,N,03758.8719352,E,1,17,0.64,163.1914,M,14.1508,M,,*5C
$GPGGA,211236.00,5551.2946020,N,03758.8719372,E,1,17,0.64,163.1887,M,14.1508,M,,*51
$GPGGA,211237.00,5551.2945988,N,03758.8719392,E,1,17,0.64,163.1778,M,14.1508,M,,*59
$GPGGA,211238.00,5551.2945956,N,03758.8719434,E,1,17,0.64,163.1699,M,14.1508,M,,*50
$GPGGA,211239.00,5551.2945947,N,03758.8719459,E,1,17,0.64,163.1656,M,14.1508,M,,*59
$GPGGA,211240.00,5551.2945936,N,03758.8719521,E,1,17,0.64,163.1539,M,14.1508,M,,*55
$GPGGA,211241.00,5551.2945890,N,03758.8719570,E,1,17,0.64,163.1453,M,14.1508,M,,*50
$GPGGA,211242.00,5551.2945867,N,03758.8719626,E,1,17,0.64,163.1407,M,14.1508,M,,*5A
$GPGGA,211243.00,5551.2945850,N,03758.8719650,E,1,17,0.64,163.1346,M,14.1508,M,,*5C
$GPGGA,211244.00,5551.2945818,N,03758.8719691,E,1,17,0.64,163.1247,M,14.1508,M,,*5A
$GPGGA,211245.00,5551.2945766,N,03758.8719727,E,1,17,0.64,163.1118,M,14.1508,M,,*58
$GPGGA,211246.00,5551.2945763,N,03758.8719717,E,1,17,0.64,163.1035,M,14.1508,M,,*53
$GPGGA,211247.00,5551.2945756,N,03758.8719708,E,1,17,0.64,163.0986,M,14.1508,M,,*5A
$GPGGA,211248.00,5551.2945751,N,03758.8719711,E,1,17,0.64,163.0927,M,14.1508,M,,*51
$GPGGA,211249.00,5551.2945779,N,03758.8719692,E,1,17,0.64,163.0977,M,14.1508,M,,*55
$GPGGA,211250.00,5551.2945819,N,03758.8719697,E,1,17,0.64,163.1072,M,14.1508,M,,*5C
$GPGGA,211251.00,5551.2945839,N,03758.8719706,E,1,17,0.64,163.1182,M,14.1508,M,,*58
$GPGGA,211252.00,5551.2945838,N,03758.8719753,E,1,17,0.64,163.1230,M,14.1508,M,,*50
$GPGGA,211253.00,5551.2945851,N,03758.8719766,E,1,17,0.64,163.1314,M,14.1508,M,,*5F
$GPGGA,211254.00,5551.2945892,N,03758.8719777,E,1,17,0.64,163.1347,M,14.1508,M,,*51
$GPGGA,211255.00,5551.2945892,N,03758.8719778,E,1,17,0.64,163.1407,M,14.1508,M,,*5C
$GPGGA,211256.00,5551.2945856,N,03758.8719862,E,1,17,0.64,163.1322,M,14.1508,M,,*53
$GPGGA,211257.00,5551.2945834,N,03758.8719930,E,1,17,0.64,163.1317,M,14.1508,M,,*56
$GPGGA,211258.00,5551.2945884,N,03758.8719952,E,1,17,0.64,163.1459,M,14.1508,M,,*5B
$GPGGA,211259.00,5551.2945911,N,03758.8719958,E,1,17,0.64,163.1513,M,14.1508,M,,*52
$GPGGA,211300.00,5551.2945917,N,03758.8719936,E,1,17,0.64,163.1468,M,14.1508,M,,*5C
$GPGGA,211301.00,5551.2945899,N,03758.8719984,E,1,17,0.64,163.1413,M,14.1508,M,,*5F
$GPGGA,211302.00,5551.2945837,N,03758.8720015,E,1,17,0.64,163.1247,M,14.1508,M,,*54
$GPGGA,211303.00,5551.2945818,N,03758.8720041,E,1,17,0.64,163.1222,M,14.1508,M,,*5A
$GPGGA,211304.00,5551.2945853,N,03758.8720030,E,1,17,0.64,163.1289,M,14.1508,M,,*55
$GPGGA,211305.00,5551.2945868,N,03758.8720008,E,1,17,0.64,163.1349,M,14.1508,M,,*5A
$GPGGA,211306.00,5551.2945914,N,03758.8719990,E,1,17,0.64,163.1486,M,14.1508,M,,*55
$GPGGA,211307.00,5551.2945916,N,03758.8719991,E,1,17,0.64,163.1516,M,14.1508,M,,*5F
$GPGGA,211308.00,5551.2945923,N,03758.8720005,E,1,17,0.64,163.1514,M,14.1508,M,,*5A
$GPGGA,211309.00,5551.2945904,N,03758.8720034,E,1,17,0.64,163.1489,M,14.1508,M,,*59
$GPGGA,211310.00,5551.2945960,N,03758.8720007,E,1,17,0.64,163.1608,M,14.1508,M,,*58
$GPGGA,211311.00,5551.2946013,N,03758.8719979,E,1,17,0.64,163.1699,M,14.1508,M,,*55
$GPGGA,211312.00,5551.2946019,N,03758.8719938,E,1,17,0.64,163.1701,M,14.1508,M,,*59
$GPGGA,211313.00,5551.2946023,N,03758.8719927,E,1,17,0.64,163.1653,M,14.1508,M,,*59
$GPGGA,211314.00,5551.2946011,N,03758.8719936,E,1,17,0.64,163.1622,M,14.1508,M,,*59
$GPGGA,211315.00,5551.2946004,N,03758.8719942,E,1,17,0.64,163.1628,M,14.1508,M,,*55
$GPGGA,211316.00,5551.2946009,N,03758.8719955,E,1,17,0.64,163.1628,M,14.1508,M,,*5D
$GPGGA,211317.00,5551.2946019,N,03758.8719976,E,1,17,0.64,163.1681,M,14.1508,M,,*5F
$GPGGA,211318.00,5551.2946026,N,03758.8719969,E,1,17,0.64,163.1649,M,14.1508,M,,*56
